{
  "model_name": "Sam Solution",
  "run_datetime": "2018-10-24T13:34:16",
  "route": [
    {
      "is_duplicate_origin": false,
      "is_repeat": false,
      "state": null,
      "city": null,
      "doctor_name": "Sam",
      "address": "900 Madison Street, Hewlett Neck, NY, USA",
      "lat": 40.6258472,
      "lon": -73.69714579999999,
      "id": "start",
      "visit_time_seconds": 0,
      "arrival_time": "2018-06-18T13:00:00+00:00",
      "end_time": "2018-06-18T13:00:00+00:00"
    },
    {
      "is_duplicate_origin": false,
      "is_repeat": false,
      "state": null,
      "city": null,
      "doctor_name": "Carpentieri Adam",
      "address": "119 New York Ave, Massapequa, NY 11758, USA",
      "lat": 40.678531,
      "lon": -73.46954,
      "id": "127853081",
      "arrival_time": "2018-06-18T13:33:50+00:00",
      "end_time": "2018-06-18T13:53:50+00:00",
      "travel_to_time": 2030
    },
    {
      "is_duplicate_origin": false,
      "is_repeat": false,
      "state": null,
      "city": null,
      "doctor_name": "Fo, Corey",
      "address": "4160 Merrick Rd, Massapequa, NY 11758, USA",
      "lat": 40.6664368,
      "lon": -73.4792472,
      "id": "95291301",
      "num_total_visits": 2,
      "min_visit_gap_days": 3,
      "arrival_time": "2018-06-18T13:59:01+00:00",
      "end_time": "2018-06-18T14:19:01+00:00",
      "travel_to_time": 302
    },
    {
      "is_duplicate_origin": false,
      "is_repeat": false,
      "state": null,
      "city": null,
      "doctor_name": "Morrison *",
      "address": "5500 Merrick Rd, Massapequa, NY 11758, USA",
      "lat": 40.6687334,
      "lon": -73.434181,
      "id": "120537239",
      "arrival_time": "2018-06-18T14:24:54+00:00",
      "end_time": "2018-06-18T14:44:54+00:00",
      "travel_to_time": 353
    },
    {
      "is_duplicate_origin": false,
      "is_repeat": false,
      "state": null,
      "city": null,
      "doctor_name": "Jasjit Singh",
      "address": "60 Louden Ave, Amityville, NY 11701, USA",
      "lat": 40.68343,
      "lon": -73.4200259,
      "id": "121404566",
      "arrival_time": "2018-06-18T14:59:01+00:00",
      "end_time": "2018-06-18T15:19:01+00:00",
      "travel_to_time": 294
    },
    {
      "is_duplicate_origin": false,
      "is_repeat": false,
      "state": null,
      "city": null,
      "doctor_name": "Goetz, James",
      "address": "1428 Deer Park Ave, North Babylon, NY 11703, USA",
      "lat": 40.7454886,
      "lon": -73.3233956,
      "id": "93388682",
      "arrival_time": "2018-06-18T15:33:06+00:00",
      "end_time": "2018-06-18T15:53:06+00:00",
      "travel_to_time": 845
    },
    {
      "is_duplicate_origin": false,
      "is_repeat": false,
      "state": null,
      "city": null,
      "doctor_name": "Kim Ronald",
      "address": "1428 Deer Park Ave, North Babylon, NY 11703, USA",
      "lat": 40.7454886,
      "lon": -73.3233956,
      "id": "89574614",
      "arrival_time": "2018-06-18T15:53:06+00:00",
      "end_time": "2018-06-18T16:13:06+00:00",
      "travel_to_time": 0
    },
    {
      "is_duplicate_origin": false,
      "is_repeat": false,
      "state": null,
      "city": null,
      "doctor_name": "Michele Ahmadi",
      "address": "1428 Deer Park Ave, North Babylon, NY 11703, USA",
      "lat": 40.7454886,
      "lon": -73.3233956,
      "id": "125718339",
      "arrival_time": "2018-06-18T16:13:06+00:00",
      "end_time": "2018-06-18T16:33:06+00:00",
      "travel_to_time": 0
    },
    {
      "is_duplicate_origin": false,
      "is_repeat": false,
      "state": null,
      "city": null,
      "doctor_name": "Benatar, David",
      "address": "2103 Deer Park Ave, Deer Park, NY 11729, USA",
      "lat": 40.7731542,
      "lon": -73.333703,
      "id": "39357847",
      "arrival_time": "2018-06-18T16:39:46+00:00",
      "end_time": "2018-06-18T16:59:46+00:00",
      "travel_to_time": 400
    },
    {
      "is_duplicate_origin": false,
      "is_repeat": false,
      "state": null,
      "city": null,
      "doctor_name": "Condreras Susan",
      "address": "379 Oakwood Rd, Huntington Station, NY 11746, USA",
      "lat": 40.8401718,
      "lon": -73.4302677,
      "id": "27014164",
      "arrival_time": "2018-06-18T17:20:21+00:00",
      "end_time": "2018-06-18T17:40:21+00:00",
      "travel_to_time": 1235
    },
    {
      "is_duplicate_origin": false,
      "is_repeat": false,
      "state": null,
      "city": null,
      "doctor_name": "Michelle Mesh",
      "address": "755 New York Ave #250, Huntington, NY 11743, USA",
      "lat": 40.860089,
      "lon": -73.42065989999999,
      "id": "116011838",
      "arrival_time": "2018-06-18T17:44:57+00:00",
      "end_time": "2018-06-18T18:04:57+00:00",
      "travel_to_time": 276
    },
    {
      "is_duplicate_origin": false,
      "is_repeat": false,
      "state": null,
      "city": null,
      "doctor_name": "Moriarty/Michelle",
      "address": "755 New York Ave, Huntington, NY 11743, USA",
      "lat": 40.8601005,
      "lon": -73.4206454,
      "id": "79759510",
      "arrival_time": "2018-06-18T18:59:01+00:00",
      "end_time": "2018-06-18T19:19:01+00:00",
      "travel_to_time": 0
    },
    {
      "is_duplicate_origin": false,
      "is_repeat": false,
      "state": null,
      "city": null,
      "doctor_name": "Kalmar, Robert",
      "address": "62 Green St, Huntington, NY 11743, USA",
      "lat": 40.8685409,
      "lon": -73.42782760000001,
      "id": "52218367",
      "arrival_time": "2018-06-18T19:23:00+00:00",
      "end_time": "2018-06-18T19:43:00+00:00",
      "travel_to_time": 239
    },
    {
      "is_duplicate_origin": false,
      "is_repeat": false,
      "state": null,
      "city": null,
      "doctor_name": "Kalmar, Mat",
      "address": "62 Green St, Huntington, NY 11743, USA",
      "lat": 40.8685409,
      "lon": -73.42782760000001,
      "id": "61426871",
      "arrival_time": "2018-06-18T19:43:00+00:00",
      "end_time": "2018-06-18T20:03:00+00:00",
      "travel_to_time": 0
    },
    {
      "is_duplicate_origin": true,
      "is_repeat": false,
      "state": null,
      "city": null,
      "doctor_name": "Sam",
      "address": "900 Madison Street, Hewlett Neck, NY, USA",
      "lat": 40.6258472,
      "lon": -73.69714579999999,
      "id": "start",
      "visit_time_seconds": 57599,
      "arrival_time": "2018-06-18T21:00:00+00:00",
      "end_time": "2018-06-19T12:59:59+00:00",
      "travel_to_time": 2910
    },
    {
      "is_duplicate_origin": false,
      "is_repeat": false,
      "state": null,
      "city": null,
      "doctor_name": "Abraham",
      "address": "60 Fleets Point Dr, West Babylon, NY 11704, USA",
      "lat": 40.68653399999999,
      "lon": -73.3404276,
      "id": "100148492",
      "arrival_time": "2018-06-19T13:59:01+00:00",
      "end_time": "2018-06-19T14:19:01+00:00",
      "travel_to_time": 2669
    },
    {
      "is_duplicate_origin": false,
      "is_repeat": false,
      "state": null,
      "city": null,
      "doctor_name": "Cappellino",
      "address": "60 Fleets Point Dr, West Babylon, NY 11704, USA",
      "lat": 40.68653399999999,
      "lon": -73.3404276,
      "id": "59455143",
      "arrival_time": "2018-06-19T14:19:01+00:00",
      "end_time": "2018-06-19T14:39:01+00:00",
      "travel_to_time": 0
    },
    {
      "is_duplicate_origin": false,
      "is_repeat": false,
      "state": null,
      "city": null,
      "doctor_name": "Godhwani, Sanjay",
      "address": "6144 NY-25A #13, Wading River, NY 11792, USA",
      "lat": 40.9452953,
      "lon": -72.8340297,
      "id": "12369342",
      "arrival_time": "2018-06-19T15:26:18+00:00",
      "end_time": "2018-06-19T15:46:18+00:00",
      "travel_to_time": 2837
    },
    {
      "is_duplicate_origin": false,
      "is_repeat": false,
      "state": null,
      "city": null,
      "doctor_name": "Wani",
      "address": "2500 Nesconset Hwy, Stony Brook, NY 11790, USA",
      "lat": 40.8806765,
      "lon": -73.11585219999999,
      "id": "55459357",
      "arrival_time": "2018-06-19T16:18:40+00:00",
      "end_time": "2018-06-19T16:38:40+00:00",
      "travel_to_time": 1942
    },
    {
      "is_duplicate_origin": false,
      "is_repeat": false,
      "state": null,
      "city": null,
      "doctor_name": "Tan",
      "address": "222 E Main St #312, Smithtown, NY 11787, USA",
      "lat": 40.855642,
      "lon": -73.1842224,
      "id": "35585186",
      "arrival_time": "2018-06-19T16:51:12+00:00",
      "end_time": "2018-06-19T17:11:12+00:00",
      "travel_to_time": 752
    },
    {
      "is_duplicate_origin": false,
      "is_repeat": false,
      "state": null,
      "city": null,
      "doctor_name": "Daniel Jeran",
      "address": "521 NY-111 #309, Hauppauge, NY 11788, USA",
      "lat": 40.8275615,
      "lon": -73.1984288,
      "id": "124061139",
      "arrival_time": "2018-06-19T17:18:05+00:00",
      "end_time": "2018-06-19T17:38:05+00:00",
      "travel_to_time": 413
    },
    {
      "is_duplicate_origin": false,
      "is_repeat": false,
      "state": null,
      "city": null,
      "doctor_name": "Beechel, Christine",
      "address": "1 Kings Hwy, Hauppauge, NY 11788, USA",
      "lat": 40.815778,
      "lon": -73.21854789999999,
      "id": "68562907",
      "arrival_time": "2018-06-19T17:43:18+00:00",
      "end_time": "2018-06-19T18:03:18+00:00",
      "travel_to_time": 313
    },
    {
      "is_duplicate_origin": false,
      "is_repeat": false,
      "state": null,
      "city": null,
      "doctor_name": "Stubel",
      "address": "1 Kings Hwy, Hauppauge, NY 11788, USA",
      "lat": 40.815778,
      "lon": -73.21854789999999,
      "id": "90979612",
      "arrival_time": "2018-06-19T18:03:18+00:00",
      "end_time": "2018-06-19T18:23:18+00:00",
      "travel_to_time": 0
    },
    {
      "is_duplicate_origin": false,
      "is_repeat": false,
      "state": null,
      "city": null,
      "doctor_name": "Jacob",
      "address": "66 Harned Rd, Commack, NY 11725, USA",
      "lat": 40.8410286,
      "lon": -73.2801428,
      "id": "99188419",
      "arrival_time": "2018-06-19T18:30:56+00:00",
      "end_time": "2018-06-19T18:50:56+00:00",
      "travel_to_time": 458
    },
    {
      "is_duplicate_origin": false,
      "is_repeat": false,
      "state": null,
      "city": null,
      "doctor_name": "Nambiar, Seema",
      "address": "2171 Jericho Turnpike, Commack, NY 11725, USA",
      "lat": 40.843751,
      "lon": -73.2849209,
      "id": "105337583",
      "arrival_time": "2018-06-19T18:53:20+00:00",
      "end_time": "2018-06-19T19:13:20+00:00",
      "travel_to_time": 144
    },
    {
      "is_duplicate_origin": false,
      "is_repeat": false,
      "state": null,
      "city": null,
      "doctor_name": "Benhuri",
      "address": "1025 N Broadway, Massapequa, NY 11758, USA",
      "lat": 40.708596,
      "lon": -73.461336,
      "id": "116835333",
      "arrival_time": "2018-06-19T19:59:01+00:00",
      "end_time": "2018-06-19T20:19:01+00:00",
      "travel_to_time": 1172
    },
    {
      "is_duplicate_origin": true,
      "is_repeat": false,
      "state": null,
      "city": null,
      "doctor_name": "Sam",
      "address": "900 Madison Street, Hewlett Neck, NY, USA",
      "lat": 40.6258472,
      "lon": -73.69714579999999,
      "id": "start",
      "visit_time_seconds": 57599,
      "arrival_time": "2018-06-19T21:00:00+00:00",
      "end_time": "2018-06-20T12:59:59+00:00",
      "travel_to_time": 1774
    },
    {
      "is_duplicate_origin": false,
      "is_repeat": false,
      "state": null,
      "city": null,
      "doctor_name": "Dorothy Scarpinato",
      "address": "1800 Walt Whitman Rd, Melville, NY 11747, USA",
      "lat": 40.7702004,
      "lon": -73.42684369999999,
      "id": "71647698",
      "arrival_time": "2018-06-20T13:59:01+00:00",
      "end_time": "2018-06-20T14:19:01+00:00",
      "travel_to_time": 2416
    },
    {
      "is_duplicate_origin": false,
      "is_repeat": false,
      "state": null,
      "city": null,
      "doctor_name": "Carol Torgrimsen",
      "address": "55 Southern Blvd, Nesconset, NY 11767, USA",
      "lat": 40.85520289999999,
      "lon": -73.1593,
      "id": "119602684",
      "arrival_time": "2018-06-20T14:43:22+00:00",
      "end_time": "2018-06-20T15:03:22+00:00",
      "travel_to_time": 1461
    },
    {
      "is_duplicate_origin": false,
      "is_repeat": false,
      "state": null,
      "city": null,
      "doctor_name": "jenna Larocca",
      "address": "500 W Main St #116, Bay Shore, NY 11706, USA",
      "lat": 40.7142502,
      "lon": -73.25776809999999,
      "id": "85216633",
      "arrival_time": "2018-06-20T15:29:14+00:00",
      "end_time": "2018-06-20T15:49:14+00:00",
      "travel_to_time": 1552
    },
    {
      "is_duplicate_origin": false,
      "is_repeat": false,
      "state": null,
      "city": null,
      "doctor_name": "John Kannengieser",
      "address": "1111 Montauk Hwy #100, West Islip, NY 11795, USA",
      "lat": 40.6960121,
      "lon": -73.29549390000001,
      "id": "90736418",
      "arrival_time": "2018-06-20T15:53:33+00:00",
      "end_time": "2018-06-20T16:13:33+00:00",
      "travel_to_time": 259
    },
    {
      "is_duplicate_origin": false,
      "is_repeat": false,
      "state": null,
      "city": null,
      "doctor_name": "Heinisch",
      "address": "400 Montauk Hwy #108, West Islip, NY 11795, USA",
      "lat": 40.6963899,
      "lon": -73.3140349,
      "id": "52418866",
      "arrival_time": "2018-06-20T16:17:45+00:00",
      "end_time": "2018-06-20T16:37:45+00:00",
      "travel_to_time": 252
    },
    {
      "is_duplicate_origin": false,
      "is_repeat": false,
      "state": null,
      "city": null,
      "doctor_name": "Albert, Sunil",
      "address": "100 W Main St, Babylon, NY 11702, USA",
      "lat": 40.6956917,
      "lon": -73.3246752,
      "id": "13393827",
      "arrival_time": "2018-06-20T16:40:01+00:00",
      "end_time": "2018-06-20T17:00:01+00:00",
      "travel_to_time": 136
    },
    {
      "is_duplicate_origin": false,
      "is_repeat": false,
      "state": null,
      "city": null,
      "doctor_name": "Faisal, Malik",
      "address": "100 W Main St, Babylon, NY 11702, USA",
      "lat": 40.6956917,
      "lon": -73.3246752,
      "id": "75180884",
      "arrival_time": "2018-06-20T17:00:01+00:00",
      "end_time": "2018-06-20T17:20:01+00:00",
      "travel_to_time": 0
    },
    {
      "is_duplicate_origin": false,
      "is_repeat": false,
      "state": null,
      "city": null,
      "doctor_name": "CRAIG FANDOS",
      "address": "500 W Main St, Babylon, NY 11702, USA",
      "lat": 40.6882257,
      "lon": -73.3390919,
      "id": "86543341",
      "arrival_time": "2018-06-20T17:23:04+00:00",
      "end_time": "2018-06-20T17:43:04+00:00",
      "travel_to_time": 183
    },
    {
      "is_duplicate_origin": false,
      "is_repeat": false,
      "state": null,
      "city": null,
      "doctor_name": "Tara Boyle",
      "address": "500 W Main St #116, Babylon, NY 11702, USA",
      "lat": 40.6889565,
      "lon": -73.3390004,
      "id": "131946718",
      "arrival_time": "2018-06-20T17:43:04+00:00",
      "end_time": "2018-06-20T18:03:04+00:00",
      "travel_to_time": 0
    },
    {
      "is_duplicate_origin": false,
      "is_repeat": false,
      "state": null,
      "city": null,
      "doctor_name": "Kohane",
      "address": "500 W Main St #116, Babylon, NY 11702, USA",
      "lat": 40.6882257,
      "lon": -73.3390919,
      "id": "50168367",
      "arrival_time": "2018-06-20T18:03:04+00:00",
      "end_time": "2018-06-20T18:23:04+00:00",
      "travel_to_time": 0
    },
    {
      "is_duplicate_origin": false,
      "is_repeat": false,
      "state": null,
      "city": null,
      "doctor_name": "Dascalu",
      "address": "500 W Main St #110, Babylon, NY 11702, USA",
      "lat": 40.6882257,
      "lon": -73.3390919,
      "id": "42083781",
      "arrival_time": "2018-06-20T18:23:04+00:00",
      "end_time": "2018-06-20T18:43:04+00:00",
      "travel_to_time": 0
    },
    {
      "is_duplicate_origin": false,
      "is_repeat": false,
      "state": null,
      "city": null,
      "doctor_name": "Hussain Mohammad",
      "address": "317 Broadway b, Amityville, NY 11701, USA",
      "lat": 40.682696,
      "lon": -73.4168004,
      "id": "39280629",
      "arrival_time": "2018-06-20T18:57:58+00:00",
      "end_time": "2018-06-20T19:17:58+00:00",
      "travel_to_time": 894
    },
    {
      "is_duplicate_origin": false,
      "is_repeat": false,
      "state": null,
      "city": null,
      "doctor_name": "Elena Stybel",
      "address": "100 W Oak St, Amityville, NY 11701, USA",
      "lat": 40.6795216,
      "lon": -73.422418,
      "id": "58118645",
      "arrival_time": "2018-06-20T19:20:14+00:00",
      "end_time": "2018-06-20T19:40:14+00:00",
      "travel_to_time": 136
    },
    {
      "is_duplicate_origin": false,
      "is_repeat": false,
      "state": null,
      "city": null,
      "doctor_name": "Regina Song",
      "address": "119 New York Ave, Massapequa, NY 11758, USA",
      "lat": 40.678531,
      "lon": -73.46954,
      "id": "49240715",
      "arrival_time": "2018-06-20T19:48:21+00:00",
      "end_time": "2018-06-20T20:08:21+00:00",
      "travel_to_time": 487
    },
    {
      "is_duplicate_origin": true,
      "is_repeat": false,
      "state": null,
      "city": null,
      "doctor_name": "Sam",
      "address": "900 Madison Street, Hewlett Neck, NY, USA",
      "lat": 40.6258472,
      "lon": -73.69714579999999,
      "id": "start",
      "visit_time_seconds": 57599,
      "arrival_time": "2018-06-20T21:00:00+00:00",
      "end_time": "2018-06-21T12:59:59+00:00",
      "travel_to_time": 2030
    },
    {
      "is_duplicate_origin": false,
      "is_repeat": false,
      "state": null,
      "city": null,
      "doctor_name": "Weissberg",
      "address": "379 Oakwood Rd, Huntington Station, NY 11746, USA",
      "lat": 40.8401718,
      "lon": -73.4302677,
      "id": "46784953",
      "arrival_time": "2018-06-21T13:44:14+00:00",
      "end_time": "2018-06-21T14:04:14+00:00",
      "travel_to_time": 2655
    },
    {
      "is_duplicate_origin": false,
      "is_repeat": false,
      "state": null,
      "city": null,
      "doctor_name": "Feldman",
      "address": "33 Walt Whitman Rd #104, Huntington Station, NY 11746, USA",
      "lat": 40.8298103,
      "lon": -73.4116664,
      "id": "80412057",
      "arrival_time": "2018-06-21T14:09:58+00:00",
      "end_time": "2018-06-21T14:29:58+00:00",
      "travel_to_time": 344
    },
    {
      "is_duplicate_origin": false,
      "is_repeat": false,
      "state": null,
      "city": null,
      "doctor_name": "Modi ",
      "address": "789 Park Ave #202, Huntington, NY 11743, USA",
      "lat": 40.857186,
      "lon": -73.39518699999999,
      "id": "78826573",
      "arrival_time": "2018-06-21T14:39:32+00:00",
      "end_time": "2018-06-21T14:59:32+00:00",
      "travel_to_time": 574
    },
    {
      "is_duplicate_origin": false,
      "is_repeat": false,
      "state": null,
      "city": null,
      "doctor_name": "Wishner",
      "address": "180 E Pulaski Rd, Huntington Station, NY 11746, USA",
      "lat": 40.8526173,
      "lon": -73.39988,
      "id": "133155584",
      "arrival_time": "2018-06-21T15:01:50+00:00",
      "end_time": "2018-06-21T15:21:50+00:00",
      "travel_to_time": 138
    },
    {
      "is_duplicate_origin": false,
      "is_repeat": false,
      "state": null,
      "city": null,
      "doctor_name": "Leo",
      "address": "66 Harned Rd, Commack, NY 11725, USA",
      "lat": 40.8410286,
      "lon": -73.2801428,
      "id": "121249698",
      "arrival_time": "2018-06-21T15:38:03+00:00",
      "end_time": "2018-06-21T15:58:03+00:00",
      "travel_to_time": 973
    },
    {
      "is_duplicate_origin": false,
      "is_repeat": false,
      "state": null,
      "city": null,
      "doctor_name": "Spain",
      "address": "2103 Deer Park Ave, Deer Park, NY 11729, USA",
      "lat": 40.7731542,
      "lon": -73.333703,
      "id": "7609823",
      "arrival_time": "2018-06-21T16:11:04+00:00",
      "end_time": "2018-06-21T16:31:04+00:00",
      "travel_to_time": 781
    },
    {
      "is_duplicate_origin": false,
      "is_repeat": false,
      "state": null,
      "city": null,
      "doctor_name": "Jared Hertz",
      "address": "350 W Main St, Babylon, NY 11702, USA",
      "lat": 40.6930368,
      "lon": -73.33317339999999,
      "id": "72305896",
      "arrival_time": "2018-06-21T16:47:05+00:00",
      "end_time": "2018-06-21T17:07:05+00:00",
      "travel_to_time": 961
    },
    {
      "is_duplicate_origin": false,
      "is_repeat": false,
      "state": null,
      "city": null,
      "doctor_name": "Howard Hertz",
      "address": "350 W Main St, Babylon, NY 11702, USA",
      "lat": 40.6930368,
      "lon": -73.33317339999999,
      "id": "40239524",
      "arrival_time": "2018-06-21T17:07:05+00:00",
      "end_time": "2018-06-21T17:27:05+00:00",
      "travel_to_time": 0
    },
    {
      "is_duplicate_origin": false,
      "is_repeat": false,
      "state": null,
      "city": null,
      "doctor_name": "Vuong",
      "address": "500 W Main St #110, Babylon, NY 11702, USA",
      "lat": 40.6882257,
      "lon": -73.3390919,
      "id": "128681935",
      "arrival_time": "2018-06-21T17:28:42+00:00",
      "end_time": "2018-06-21T17:48:42+00:00",
      "travel_to_time": 97
    },
    {
      "is_duplicate_origin": false,
      "is_repeat": false,
      "state": null,
      "city": null,
      "doctor_name": "Emily Malinowski",
      "address": "500 W Main St #116, Babylon, NY 11702, USA",
      "lat": 40.6882257,
      "lon": -73.3390919,
      "id": "40571937",
      "arrival_time": "2018-06-21T17:48:42+00:00",
      "end_time": "2018-06-21T18:08:42+00:00",
      "travel_to_time": 0
    },
    {
      "is_duplicate_origin": false,
      "is_repeat": false,
      "state": null,
      "city": null,
      "doctor_name": "Cipolla Thomas",
      "address": "350 W Montauk Hwy, Lindenhurst, NY 11757, USA",
      "lat": 40.6751237,
      "lon": -73.37229719999999,
      "id": "22556402",
      "arrival_time": "2018-06-21T18:14:05+00:00",
      "end_time": "2018-06-21T18:34:05+00:00",
      "travel_to_time": 323
    },
    {
      "is_duplicate_origin": false,
      "is_repeat": false,
      "state": null,
      "city": null,
      "doctor_name": "Donna Forker",
      "address": "5500 Merrick Rd, Massapequa, NY 11758, USA",
      "lat": 40.6687334,
      "lon": -73.434181,
      "id": "63015860",
      "arrival_time": "2018-06-21T18:43:03+00:00",
      "end_time": "2018-06-21T19:03:03+00:00",
      "travel_to_time": 538
    },
    {
      "is_duplicate_origin": false,
      "is_repeat": false,
      "state": null,
      "city": null,
      "doctor_name": "Waman Larry",
      "address": "5500 Merrick Rd, Massapequa, NY 11758, USA",
      "lat": 40.6687334,
      "lon": -73.434181,
      "id": "109058321",
      "arrival_time": "2018-06-21T19:03:03+00:00",
      "end_time": "2018-06-21T19:23:03+00:00",
      "travel_to_time": 0
    },
    {
      "is_duplicate_origin": false,
      "is_repeat": false,
      "state": null,
      "city": null,
      "doctor_name": "Fo, Corey",
      "address": "4160 Merrick Rd, Massapequa, NY 11758, USA",
      "lat": 40.6664368,
      "lon": -73.4792472,
      "id": "95291301",
      "num_total_visits": 2,
      "min_visit_gap_days": 3,
      "arrival_time": "2018-06-21T19:28:56+00:00",
      "end_time": "2018-06-21T19:48:56+00:00",
      "travel_to_time": 353
    },
    {
      "is_duplicate_origin": false,
      "is_repeat": false,
      "state": null,
      "city": null,
      "doctor_name": "Juan Goez",
      "address": "2428 Merrick Rd, Bellmore, NY 11710, USA",
      "lat": 40.66154,
      "lon": -73.5357161,
      "id": "43791895",
      "arrival_time": "2018-06-21T19:57:19+00:00",
      "end_time": "2018-06-21T20:17:19+00:00",
      "travel_to_time": 503
    },
    {
      "is_duplicate_origin": true,
      "is_repeat": false,
      "state": null,
      "city": null,
      "doctor_name": "Sam",
      "address": "900 Madison Street, Hewlett Neck, NY, USA",
      "lat": 40.6258472,
      "lon": -73.69714579999999,
      "id": "start",
      "visit_time_seconds": 57599,
      "arrival_time": "2018-06-21T21:00:00+00:00",
      "end_time": "2018-06-22T12:59:59+00:00",
      "travel_to_time": 1818
    },
    {
      "is_duplicate_origin": false,
      "is_repeat": false,
      "state": null,
      "city": null,
      "doctor_name": "Jeffrey Perry",
      "address": "2033 Deer Park Ave, Deer Park, NY 11729, USA",
      "lat": 40.768719,
      "lon": -73.33192799999999,
      "id": "27372930",
      "arrival_time": "2018-06-22T13:44:12+00:00",
      "end_time": "2018-06-22T14:04:12+00:00",
      "travel_to_time": 2653
    },
    {
      "is_duplicate_origin": false,
      "is_repeat": false,
      "state": null,
      "city": null,
      "doctor_name": "Paci",
      "address": "500 Commack Rd, Commack, NY 11725, USA",
      "lat": 40.8226772,
      "lon": -73.2916469,
      "id": "126589934",
      "arrival_time": "2018-06-22T14:16:07+00:00",
      "end_time": "2018-06-22T14:36:07+00:00",
      "travel_to_time": 715
    },
    {
      "is_duplicate_origin": false,
      "is_repeat": false,
      "state": null,
      "city": null,
      "doctor_name": "Rizzi",
      "address": "500 Commack Rd, Commack, NY 11725, USA",
      "lat": 40.8226772,
      "lon": -73.2916469,
      "id": "84292102",
      "arrival_time": "2018-06-22T14:36:07+00:00",
      "end_time": "2018-06-22T14:56:07+00:00",
      "travel_to_time": 0
    },
    {
      "is_duplicate_origin": false,
      "is_repeat": false,
      "state": null,
      "city": null,
      "doctor_name": "Krishnan, Raj",
      "address": "1092 W Jericho Turnpike, Commack, NY 11725, United States",
      "lat": 40.8466275,
      "lon": -73.2582604,
      "id": "110191226",
      "arrival_time": "2018-06-22T15:04:39+00:00",
      "end_time": "2018-06-22T15:24:39+00:00",
      "travel_to_time": 512
    },
    {
      "is_duplicate_origin": false,
      "is_repeat": false,
      "state": null,
      "city": null,
      "doctor_name": "Charles Brogan",
      "address": "1092 W Jericho Turnpike, Commack, NY 11725, United States",
      "lat": 40.8466275,
      "lon": -73.2582604,
      "id": "114526543",
      "arrival_time": "2018-06-22T15:24:39+00:00",
      "end_time": "2018-06-22T15:44:39+00:00",
      "travel_to_time": 0
    },
    {
      "is_duplicate_origin": false,
      "is_repeat": false,
      "state": null,
      "city": null,
      "doctor_name": "Groth, Timothy",
      "address": "994 W Jericho Turnpike #104, Smithtown, NY 11787, USA",
      "lat": 40.8473449,
      "lon": -73.2504122,
      "id": "96293490",
      "arrival_time": "2018-06-22T15:45:47+00:00",
      "end_time": "2018-06-22T16:05:47+00:00",
      "travel_to_time": 68
    },
    {
      "is_duplicate_origin": false,
      "is_repeat": false,
      "state": null,
      "city": null,
      "doctor_name": "Austriacu",
      "address": "170 Little E Neck Rd, West Babylon, NY 11704, USA",
      "lat": 40.6979774,
      "lon": -73.3384241,
      "id": "36022739",
      "arrival_time": "2018-06-22T16:25:45+00:00",
      "end_time": "2018-06-22T16:45:45+00:00",
      "travel_to_time": 1198
    },
    {
      "is_duplicate_origin": false,
      "is_repeat": false,
      "state": null,
      "city": null,
      "doctor_name": "",
      "address": "500 W Main St #110, Babylon, NY 11702, USA",
      "lat": 40.6882257,
      "lon": -73.3390919,
      "id": "66904132",
      "arrival_time": "2018-06-22T16:48:29+00:00",
      "end_time": "2018-06-22T17:08:29+00:00",
      "travel_to_time": 164
    },
    {
      "is_duplicate_origin": false,
      "is_repeat": false,
      "state": null,
      "city": null,
      "doctor_name": "Barbara Somers",
      "address": "500 W Main St #116, Babylon, NY 11702, USA",
      "lat": 40.6882257,
      "lon": -73.3390919,
      "id": "19642239",
      "arrival_time": "2018-06-22T17:08:29+00:00",
      "end_time": "2018-06-22T17:28:29+00:00",
      "travel_to_time": 0
    },
    {
      "is_duplicate_origin": false,
      "is_repeat": false,
      "state": null,
      "city": null,
      "doctor_name": "Barry Gruber",
      "address": "500 W Main St #110, Babylon, NY 11702, USA",
      "lat": 40.6889565,
      "lon": -73.3390004,
      "id": "58672419",
      "arrival_time": "2018-06-22T17:28:29+00:00",
      "end_time": "2018-06-22T17:48:29+00:00",
      "travel_to_time": 0
    },
    {
      "is_duplicate_origin": false,
      "is_repeat": false,
      "state": null,
      "city": null,
      "doctor_name": "Jonathan Finkelstein",
      "address": "500 W Main St #116, Babylon, NY 11702, USA",
      "lat": 40.6889565,
      "lon": -73.3390004,
      "id": "72519723",
      "arrival_time": "2018-06-22T17:48:29+00:00",
      "end_time": "2018-06-22T18:08:29+00:00",
      "travel_to_time": 0
    },
    {
      "is_duplicate_origin": false,
      "is_repeat": false,
      "state": null,
      "city": null,
      "doctor_name": "Shalmi",
      "address": "500 W Main St #116, Babylon, NY 11702, USA",
      "lat": 40.6882257,
      "lon": -73.3390919,
      "id": "72920805",
      "arrival_time": "2018-06-22T18:08:29+00:00",
      "end_time": "2018-06-22T18:28:29+00:00",
      "travel_to_time": 0
    },
    {
      "is_duplicate_origin": false,
      "is_repeat": false,
      "state": null,
      "city": null,
      "doctor_name": "Shane Tatar",
      "address": "221 Broadway #207, Amityville, NY 11701, USA",
      "lat": 40.67878959999999,
      "lon": -73.4169548,
      "id": "121270031",
      "arrival_time": "2018-06-22T18:42:14+00:00",
      "end_time": "2018-06-22T19:02:14+00:00",
      "travel_to_time": 825
    },
    {
      "is_duplicate_origin": false,
      "is_repeat": false,
      "state": null,
      "city": null,
      "doctor_name": "Polofsky/Shane",
      "address": "221 Broadway #207, Amityville, NY 11701, USA",
      "lat": 40.67878959999999,
      "lon": -73.4169548,
      "id": "105011828",
      "arrival_time": "2018-06-22T19:02:14+00:00",
      "end_time": "2018-06-22T19:22:14+00:00",
      "travel_to_time": 0
    },
    {
      "is_duplicate_origin": true,
      "is_repeat": false,
      "state": null,
      "city": null,
      "doctor_name": "Sam",
      "address": "900 Madison Street, Hewlett Neck, NY, USA",
      "lat": 40.6258472,
      "lon": -73.69714579999999,
      "id": "start",
      "visit_time_seconds": 0,
      "arrival_time": "2018-06-22T21:00:00+00:00",
      "end_time": "2018-06-22T21:00:00+00:00",
      "travel_to_time": 2176
    }
  ],
  "metrics": {
    "num_work_periods": 5,
    "first_solution_strategy": "PATH_MOST_CONSTRAINED_ARC",
    "search_meta_heuristic": "GUIDED_LOCAL_SEARCH",
    "doctors_visited": 67,
    "candidate_doctors": 68,
    "total_travel_time": 49533,
    "avg_travel_time": 739.2985074626865,
    "total_visit_time": 310796,
    "total_work_time": 144000,
    "total_idle_time": -216329,
    "objective_costs": {
      "travel": 49533,
      "disjunctive": 200000,
      "total": 249533
    },
    "running_time": 5.097661627994967
  }
}