{
  "model_name": "Sam Solution",
  "run_datetime": "2018-10-22T15:35:44",
  "route": [
    {
      "is_duplicate_origin": false,
      "is_repeat": false,
      "state": null,
      "city": null,
      "doctor_name": "Sam",
      "address": "900 Madison Street, Hewlett Neck, NY, USA",
      "lat": 40.6258472,
      "lon": -73.69714579999999,
      "id": "start",
      "visit_time_seconds": 0,
      "arrival_time": "2018-06-18T13:00:00+00:00",
      "end_time": "2018-06-18T13:00:00+00:00"
    },
    {
      "is_duplicate_origin": false,
      "is_repeat": false,
      "state": null,
      "city": null,
      "doctor_name": "Carpentieri Adam",
      "address": "119 New York Ave, Massapequa, NY 11758, USA",
      "lat": 40.678531,
      "lon": -73.46954,
      "id": "127853081",
      "arrival_time": "2018-06-18T13:33:50+00:00",
      "end_time": "2018-06-18T13:53:50+00:00",
      "travel_to_time": 2030
    },
    {
      "is_duplicate_origin": false,
      "is_repeat": false,
      "state": null,
      "city": null,
      "doctor_name": "Fo, Corey",
      "address": "4160 Merrick Rd, Massapequa, NY 11758, USA",
      "lat": 40.6664368,
      "lon": -73.4792472,
      "id": "95291301",
      "num_total_visits": 2,
      "min_visit_gap_days": 1,
      "arrival_time": "2018-06-18T13:59:01+00:00",
      "end_time": "2018-06-18T14:19:01+00:00",
      "travel_to_time": 302
    },
    {
      "is_duplicate_origin": false,
      "is_repeat": false,
      "state": null,
      "city": null,
      "doctor_name": "Morrison *",
      "address": "5500 Merrick Rd, Massapequa, NY 11758, USA",
      "lat": 40.6687334,
      "lon": -73.434181,
      "id": "120537239",
      "arrival_time": "2018-06-18T14:24:54+00:00",
      "end_time": "2018-06-18T14:44:54+00:00",
      "travel_to_time": 353
    },
    {
      "is_duplicate_origin": false,
      "is_repeat": false,
      "state": null,
      "city": null,
      "doctor_name": "Polofsky/Shane",
      "address": "221 Broadway #207, Amityville, NY 11701, USA",
      "lat": 40.67878959999999,
      "lon": -73.4169548,
      "id": "105011828",
      "arrival_time": "2018-06-18T14:49:25+00:00",
      "end_time": "2018-06-18T15:09:25+00:00",
      "travel_to_time": 271
    },
    {
      "is_duplicate_origin": false,
      "is_repeat": false,
      "state": null,
      "city": null,
      "doctor_name": "Goetz, James",
      "address": "1428 Deer Park Ave, North Babylon, NY 11703, USA",
      "lat": 40.7454886,
      "lon": -73.3233956,
      "id": "93388682",
      "arrival_time": "2018-06-18T15:24:31+00:00",
      "end_time": "2018-06-18T15:44:31+00:00",
      "travel_to_time": 906
    },
    {
      "is_duplicate_origin": false,
      "is_repeat": false,
      "state": null,
      "city": null,
      "doctor_name": "Kim Ronald",
      "address": "1428 Deer Park Ave, North Babylon, NY 11703, USA",
      "lat": 40.7454886,
      "lon": -73.3233956,
      "id": "89574614",
      "arrival_time": "2018-06-18T15:44:31+00:00",
      "end_time": "2018-06-18T16:04:31+00:00",
      "travel_to_time": 0
    },
    {
      "is_duplicate_origin": false,
      "is_repeat": false,
      "state": null,
      "city": null,
      "doctor_name": "Michele Ahmadi",
      "address": "1428 Deer Park Ave, North Babylon, NY 11703, USA",
      "lat": 40.7454886,
      "lon": -73.3233956,
      "id": "125718339",
      "arrival_time": "2018-06-18T16:04:31+00:00",
      "end_time": "2018-06-18T16:24:31+00:00",
      "travel_to_time": 0
    },
    {
      "is_duplicate_origin": false,
      "is_repeat": false,
      "state": null,
      "city": null,
      "doctor_name": "Benatar, David",
      "address": "2103 Deer Park Ave, Deer Park, NY 11729, USA",
      "lat": 40.7731542,
      "lon": -73.333703,
      "id": "39357847",
      "arrival_time": "2018-06-18T16:31:11+00:00",
      "end_time": "2018-06-18T16:51:11+00:00",
      "travel_to_time": 400
    },
    {
      "is_duplicate_origin": false,
      "is_repeat": false,
      "state": null,
      "city": null,
      "doctor_name": "Feldman",
      "address": "33 Walt Whitman Rd #104, Huntington Station, NY 11746, USA",
      "lat": 40.8298103,
      "lon": -73.4116664,
      "id": "80412057",
      "arrival_time": "2018-06-18T17:09:57+00:00",
      "end_time": "2018-06-18T17:29:57+00:00",
      "travel_to_time": 1126
    },
    {
      "is_duplicate_origin": false,
      "is_repeat": false,
      "state": null,
      "city": null,
      "doctor_name": "Condreras Susan",
      "address": "379 Oakwood Rd, Huntington Station, NY 11746, USA",
      "lat": 40.8401718,
      "lon": -73.4302677,
      "id": "27014164",
      "arrival_time": "2018-06-18T17:35:41+00:00",
      "end_time": "2018-06-18T17:55:41+00:00",
      "travel_to_time": 344
    },
    {
      "is_duplicate_origin": false,
      "is_repeat": false,
      "state": null,
      "city": null,
      "doctor_name": "Kalmar, Robert",
      "address": "62 Green St, Huntington, NY 11743, USA",
      "lat": 40.8685409,
      "lon": -73.42782760000001,
      "id": "52218367",
      "arrival_time": "2018-06-18T18:01:21+00:00",
      "end_time": "2018-06-18T18:21:21+00:00",
      "travel_to_time": 340
    },
    {
      "is_duplicate_origin": false,
      "is_repeat": false,
      "state": null,
      "city": null,
      "doctor_name": "Kalmar, Mat",
      "address": "62 Green St, Huntington, NY 11743, USA",
      "lat": 40.8685409,
      "lon": -73.42782760000001,
      "id": "61426871",
      "arrival_time": "2018-06-18T18:21:21+00:00",
      "end_time": "2018-06-18T18:41:21+00:00",
      "travel_to_time": 0
    },
    {
      "is_duplicate_origin": false,
      "is_repeat": false,
      "state": null,
      "city": null,
      "doctor_name": "Michelle Mesh",
      "address": "755 New York Ave #250, Huntington, NY 11743, USA",
      "lat": 40.860089,
      "lon": -73.42065989999999,
      "id": "116011838",
      "arrival_time": "2018-06-18T18:45:20+00:00",
      "end_time": "2018-06-18T19:05:20+00:00",
      "travel_to_time": 239
    },
    {
      "is_duplicate_origin": false,
      "is_repeat": false,
      "state": null,
      "city": null,
      "doctor_name": "Moriarty/Michelle",
      "address": "755 New York Ave, Huntington, NY 11743, USA",
      "lat": 40.8601005,
      "lon": -73.4206454,
      "id": "79759510",
      "arrival_time": "2018-06-18T19:05:20+00:00",
      "end_time": "2018-06-18T19:25:20+00:00",
      "travel_to_time": 0
    },
    {
      "is_duplicate_origin": false,
      "is_repeat": false,
      "state": null,
      "city": null,
      "doctor_name": "Jasjit Singh",
      "address": "60 Louden Ave, Amityville, NY 11701, USA",
      "lat": 40.68343,
      "lon": -73.4200259,
      "id": "121404566",
      "arrival_time": "2018-06-18T19:55:31+00:00",
      "end_time": "2018-06-18T20:15:31+00:00",
      "travel_to_time": 1811
    },
    {
      "is_duplicate_origin": true,
      "is_repeat": false,
      "state": null,
      "city": null,
      "doctor_name": "Sam",
      "address": "900 Madison Street, Hewlett Neck, NY, USA",
      "lat": 40.6258472,
      "lon": -73.69714579999999,
      "id": "start",
      "visit_time_seconds": 57599,
      "arrival_time": "2018-06-18T21:00:00+00:00",
      "end_time": "2018-06-19T12:59:59+00:00",
      "travel_to_time": 2115
    },
    {
      "is_duplicate_origin": false,
      "is_repeat": false,
      "state": null,
      "city": null,
      "doctor_name": "Cappellino",
      "address": "60 Fleets Point Dr, West Babylon, NY 11704, USA",
      "lat": 40.68653399999999,
      "lon": -73.3404276,
      "id": "59455143",
      "arrival_time": "2018-06-19T13:59:01+00:00",
      "end_time": "2018-06-19T14:19:01+00:00",
      "travel_to_time": 2669
    },
    {
      "is_duplicate_origin": false,
      "is_repeat": false,
      "state": null,
      "city": null,
      "doctor_name": "Abraham",
      "address": "60 Fleets Point Dr, West Babylon, NY 11704, USA",
      "lat": 40.68653399999999,
      "lon": -73.3404276,
      "id": "100148492",
      "arrival_time": "2018-06-19T14:19:01+00:00",
      "end_time": "2018-06-19T14:39:01+00:00",
      "travel_to_time": 0
    },
    {
      "is_duplicate_origin": false,
      "is_repeat": false,
      "state": null,
      "city": null,
      "doctor_name": "Austriacu",
      "address": "170 Little E Neck Rd, West Babylon, NY 11704, USA",
      "lat": 40.6979774,
      "lon": -73.3384241,
      "id": "36022739",
      "arrival_time": "2018-06-19T14:59:01+00:00",
      "end_time": "2018-06-19T15:19:01+00:00",
      "travel_to_time": 188
    },
    {
      "is_duplicate_origin": false,
      "is_repeat": false,
      "state": null,
      "city": null,
      "doctor_name": "Godhwani, Sanjay",
      "address": "6144 NY-25A #13, Wading River, NY 11792, USA",
      "lat": 40.9452953,
      "lon": -72.8340297,
      "id": "12369342",
      "arrival_time": "2018-06-19T16:03:32+00:00",
      "end_time": "2018-06-19T16:23:32+00:00",
      "travel_to_time": 2671
    },
    {
      "is_duplicate_origin": false,
      "is_repeat": false,
      "state": null,
      "city": null,
      "doctor_name": "Wani",
      "address": "2500 Nesconset Hwy, Stony Brook, NY 11790, USA",
      "lat": 40.8806765,
      "lon": -73.11585219999999,
      "id": "55459357",
      "arrival_time": "2018-06-19T16:55:54+00:00",
      "end_time": "2018-06-19T17:15:54+00:00",
      "travel_to_time": 1942
    },
    {
      "is_duplicate_origin": false,
      "is_repeat": false,
      "state": null,
      "city": null,
      "doctor_name": "Tan",
      "address": "222 E Main St #312, Smithtown, NY 11787, USA",
      "lat": 40.855642,
      "lon": -73.1842224,
      "id": "35585186",
      "arrival_time": "2018-06-19T17:28:26+00:00",
      "end_time": "2018-06-19T17:48:26+00:00",
      "travel_to_time": 752
    },
    {
      "is_duplicate_origin": false,
      "is_repeat": false,
      "state": null,
      "city": null,
      "doctor_name": "Daniel Jeran",
      "address": "521 NY-111 #309, Hauppauge, NY 11788, USA",
      "lat": 40.8275615,
      "lon": -73.1984288,
      "id": "124061139",
      "arrival_time": "2018-06-19T17:55:19+00:00",
      "end_time": "2018-06-19T18:15:19+00:00",
      "travel_to_time": 413
    },
    {
      "is_duplicate_origin": false,
      "is_repeat": false,
      "state": null,
      "city": null,
      "doctor_name": "Beechel, Christine",
      "address": "1 Kings Hwy, Hauppauge, NY 11788, USA",
      "lat": 40.815778,
      "lon": -73.21854789999999,
      "id": "68562907",
      "arrival_time": "2018-06-19T18:20:32+00:00",
      "end_time": "2018-06-19T18:40:32+00:00",
      "travel_to_time": 313
    },
    {
      "is_duplicate_origin": false,
      "is_repeat": false,
      "state": null,
      "city": null,
      "doctor_name": "Stubel",
      "address": "1 Kings Hwy, Hauppauge, NY 11788, USA",
      "lat": 40.815778,
      "lon": -73.21854789999999,
      "id": "90979612",
      "arrival_time": "2018-06-19T18:40:32+00:00",
      "end_time": "2018-06-19T19:00:32+00:00",
      "travel_to_time": 0
    },
    {
      "is_duplicate_origin": false,
      "is_repeat": false,
      "state": null,
      "city": null,
      "doctor_name": "Jacob",
      "address": "66 Harned Rd, Commack, NY 11725, USA",
      "lat": 40.8410286,
      "lon": -73.2801428,
      "id": "99188419",
      "arrival_time": "2018-06-19T19:08:10+00:00",
      "end_time": "2018-06-19T19:28:10+00:00",
      "travel_to_time": 458
    },
    {
      "is_duplicate_origin": false,
      "is_repeat": false,
      "state": null,
      "city": null,
      "doctor_name": "Nambiar, Seema",
      "address": "2171 Jericho Turnpike, Commack, NY 11725, USA",
      "lat": 40.843751,
      "lon": -73.2849209,
      "id": "105337583",
      "arrival_time": "2018-06-19T19:30:34+00:00",
      "end_time": "2018-06-19T19:50:34+00:00",
      "travel_to_time": 144
    },
    {
      "is_duplicate_origin": false,
      "is_repeat": false,
      "state": null,
      "city": null,
      "doctor_name": "Benhuri",
      "address": "1025 N Broadway, Massapequa, NY 11758, USA",
      "lat": 40.708596,
      "lon": -73.461336,
      "id": "116835333",
      "arrival_time": "2018-06-19T20:10:06+00:00",
      "end_time": "2018-06-19T20:30:06+00:00",
      "travel_to_time": 1172
    },
    {
      "is_duplicate_origin": true,
      "is_repeat": false,
      "state": null,
      "city": null,
      "doctor_name": "Sam",
      "address": "900 Madison Street, Hewlett Neck, NY, USA",
      "lat": 40.6258472,
      "lon": -73.69714579999999,
      "id": "start",
      "visit_time_seconds": 57599,
      "arrival_time": "2018-06-19T21:00:00+00:00",
      "end_time": "2018-06-20T12:59:59+00:00",
      "travel_to_time": 1774
    },
    {
      "is_duplicate_origin": false,
      "is_repeat": false,
      "state": null,
      "city": null,
      "doctor_name": "Dorothy Scarpinato",
      "address": "1800 Walt Whitman Rd, Melville, NY 11747, USA",
      "lat": 40.7702004,
      "lon": -73.42684369999999,
      "id": "71647698",
      "arrival_time": "2018-06-20T13:59:01+00:00",
      "end_time": "2018-06-20T14:19:01+00:00",
      "travel_to_time": 2416
    },
    {
      "is_duplicate_origin": false,
      "is_repeat": false,
      "state": null,
      "city": null,
      "doctor_name": "Jeffrey Perry",
      "address": "2033 Deer Park Ave, Deer Park, NY 11729, USA",
      "lat": 40.768719,
      "lon": -73.33192799999999,
      "id": "27372930",
      "arrival_time": "2018-06-20T14:31:37+00:00",
      "end_time": "2018-06-20T14:51:37+00:00",
      "travel_to_time": 756
    },
    {
      "is_duplicate_origin": false,
      "is_repeat": false,
      "state": null,
      "city": null,
      "doctor_name": "jenna Larocca",
      "address": "500 W Main St #116, Bay Shore, NY 11706, USA",
      "lat": 40.7142502,
      "lon": -73.25776809999999,
      "id": "85216633",
      "arrival_time": "2018-06-20T15:09:41+00:00",
      "end_time": "2018-06-20T15:29:41+00:00",
      "travel_to_time": 1084
    },
    {
      "is_duplicate_origin": false,
      "is_repeat": false,
      "state": null,
      "city": null,
      "doctor_name": "John Kannengieser",
      "address": "1111 Montauk Hwy #100, West Islip, NY 11795, USA",
      "lat": 40.6960121,
      "lon": -73.29549390000001,
      "id": "90736418",
      "arrival_time": "2018-06-20T15:34:00+00:00",
      "end_time": "2018-06-20T15:54:00+00:00",
      "travel_to_time": 259
    },
    {
      "is_duplicate_origin": false,
      "is_repeat": false,
      "state": null,
      "city": null,
      "doctor_name": "Heinisch",
      "address": "400 Montauk Hwy #108, West Islip, NY 11795, USA",
      "lat": 40.6963899,
      "lon": -73.3140349,
      "id": "52418866",
      "arrival_time": "2018-06-20T15:58:12+00:00",
      "end_time": "2018-06-20T16:18:12+00:00",
      "travel_to_time": 252
    },
    {
      "is_duplicate_origin": false,
      "is_repeat": false,
      "state": null,
      "city": null,
      "doctor_name": "Faisal, Malik",
      "address": "100 W Main St, Babylon, NY 11702, USA",
      "lat": 40.6956917,
      "lon": -73.3246752,
      "id": "75180884",
      "arrival_time": "2018-06-20T16:20:28+00:00",
      "end_time": "2018-06-20T16:40:28+00:00",
      "travel_to_time": 136
    },
    {
      "is_duplicate_origin": false,
      "is_repeat": false,
      "state": null,
      "city": null,
      "doctor_name": "Albert, Sunil",
      "address": "100 W Main St, Babylon, NY 11702, USA",
      "lat": 40.6956917,
      "lon": -73.3246752,
      "id": "13393827",
      "arrival_time": "2018-06-20T16:40:28+00:00",
      "end_time": "2018-06-20T17:00:28+00:00",
      "travel_to_time": 0
    },
    {
      "is_duplicate_origin": false,
      "is_repeat": false,
      "state": null,
      "city": null,
      "doctor_name": "Emily Malinowski",
      "address": "500 W Main St #116, Babylon, NY 11702, USA",
      "lat": 40.6882257,
      "lon": -73.3390919,
      "id": "40571937",
      "arrival_time": "2018-06-20T17:03:31+00:00",
      "end_time": "2018-06-20T17:23:31+00:00",
      "travel_to_time": 183
    },
    {
      "is_duplicate_origin": false,
      "is_repeat": false,
      "state": null,
      "city": null,
      "doctor_name": "Tara Boyle",
      "address": "500 W Main St #116, Babylon, NY 11702, USA",
      "lat": 40.6889565,
      "lon": -73.3390004,
      "id": "131946718",
      "arrival_time": "2018-06-20T17:23:31+00:00",
      "end_time": "2018-06-20T17:43:31+00:00",
      "travel_to_time": 0
    },
    {
      "is_duplicate_origin": false,
      "is_repeat": false,
      "state": null,
      "city": null,
      "doctor_name": "Kohane",
      "address": "500 W Main St #116, Babylon, NY 11702, USA",
      "lat": 40.6882257,
      "lon": -73.3390919,
      "id": "50168367",
      "arrival_time": "2018-06-20T17:59:01+00:00",
      "end_time": "2018-06-20T18:19:01+00:00",
      "travel_to_time": 0
    },
    {
      "is_duplicate_origin": false,
      "is_repeat": false,
      "state": null,
      "city": null,
      "doctor_name": "CRAIG FANDOS",
      "address": "500 W Main St, Babylon, NY 11702, USA",
      "lat": 40.6882257,
      "lon": -73.3390919,
      "id": "86543341",
      "arrival_time": "2018-06-20T18:19:01+00:00",
      "end_time": "2018-06-20T18:39:01+00:00",
      "travel_to_time": 0
    },
    {
      "is_duplicate_origin": false,
      "is_repeat": false,
      "state": null,
      "city": null,
      "doctor_name": "Hussain Mohammad",
      "address": "317 Broadway b, Amityville, NY 11701, USA",
      "lat": 40.682696,
      "lon": -73.4168004,
      "id": "39280629",
      "arrival_time": "2018-06-20T18:53:55+00:00",
      "end_time": "2018-06-20T19:13:55+00:00",
      "travel_to_time": 894
    },
    {
      "is_duplicate_origin": false,
      "is_repeat": false,
      "state": null,
      "city": null,
      "doctor_name": "Elena Stybel",
      "address": "100 W Oak St, Amityville, NY 11701, USA",
      "lat": 40.6795216,
      "lon": -73.422418,
      "id": "58118645",
      "arrival_time": "2018-06-20T19:16:11+00:00",
      "end_time": "2018-06-20T19:36:11+00:00",
      "travel_to_time": 136
    },
    {
      "is_duplicate_origin": false,
      "is_repeat": false,
      "state": null,
      "city": null,
      "doctor_name": "Regina Song",
      "address": "119 New York Ave, Massapequa, NY 11758, USA",
      "lat": 40.678531,
      "lon": -73.46954,
      "id": "49240715",
      "arrival_time": "2018-06-20T19:44:18+00:00",
      "end_time": "2018-06-20T20:04:18+00:00",
      "travel_to_time": 487
    },
    {
      "is_duplicate_origin": true,
      "is_repeat": false,
      "state": null,
      "city": null,
      "doctor_name": "Sam",
      "address": "900 Madison Street, Hewlett Neck, NY, USA",
      "lat": 40.6258472,
      "lon": -73.69714579999999,
      "id": "start",
      "visit_time_seconds": 57599,
      "arrival_time": "2018-06-20T21:00:00+00:00",
      "end_time": "2018-06-21T12:59:59+00:00",
      "travel_to_time": 2030
    },
    {
      "is_duplicate_origin": false,
      "is_repeat": false,
      "state": null,
      "city": null,
      "doctor_name": "Weissberg",
      "address": "379 Oakwood Rd, Huntington Station, NY 11746, USA",
      "lat": 40.8401718,
      "lon": -73.4302677,
      "id": "46784953",
      "arrival_time": "2018-06-21T13:44:14+00:00",
      "end_time": "2018-06-21T14:04:14+00:00",
      "travel_to_time": 2655
    },
    {
      "is_duplicate_origin": false,
      "is_repeat": false,
      "state": null,
      "city": null,
      "doctor_name": "Wishner",
      "address": "180 E Pulaski Rd, Huntington Station, NY 11746, USA",
      "lat": 40.8526173,
      "lon": -73.39988,
      "id": "133155584",
      "arrival_time": "2018-06-21T14:10:46+00:00",
      "end_time": "2018-06-21T14:30:46+00:00",
      "travel_to_time": 392
    },
    {
      "is_duplicate_origin": false,
      "is_repeat": false,
      "state": null,
      "city": null,
      "doctor_name": "Modi ",
      "address": "789 Park Ave #202, Huntington, NY 11743, USA",
      "lat": 40.857186,
      "lon": -73.39518699999999,
      "id": "78826573",
      "arrival_time": "2018-06-21T14:33:04+00:00",
      "end_time": "2018-06-21T14:53:04+00:00",
      "travel_to_time": 138
    },
    {
      "is_duplicate_origin": false,
      "is_repeat": false,
      "state": null,
      "city": null,
      "doctor_name": "Leo",
      "address": "66 Harned Rd, Commack, NY 11725, USA",
      "lat": 40.8410286,
      "lon": -73.2801428,
      "id": "121249698",
      "arrival_time": "2018-06-21T15:08:45+00:00",
      "end_time": "2018-06-21T15:28:45+00:00",
      "travel_to_time": 941
    },
    {
      "is_duplicate_origin": false,
      "is_repeat": false,
      "state": null,
      "city": null,
      "doctor_name": "Spain",
      "address": "2103 Deer Park Ave, Deer Park, NY 11729, USA",
      "lat": 40.7731542,
      "lon": -73.333703,
      "id": "7609823",
      "arrival_time": "2018-06-21T15:41:46+00:00",
      "end_time": "2018-06-21T16:01:46+00:00",
      "travel_to_time": 781
    },
    {
      "is_duplicate_origin": false,
      "is_repeat": false,
      "state": null,
      "city": null,
      "doctor_name": "Howard Hertz",
      "address": "350 W Main St, Babylon, NY 11702, USA",
      "lat": 40.6930368,
      "lon": -73.33317339999999,
      "id": "40239524",
      "arrival_time": "2018-06-21T16:17:47+00:00",
      "end_time": "2018-06-21T16:37:47+00:00",
      "travel_to_time": 961
    },
    {
      "is_duplicate_origin": false,
      "is_repeat": false,
      "state": null,
      "city": null,
      "doctor_name": "Jared Hertz",
      "address": "350 W Main St, Babylon, NY 11702, USA",
      "lat": 40.6930368,
      "lon": -73.33317339999999,
      "id": "72305896",
      "arrival_time": "2018-06-21T16:37:47+00:00",
      "end_time": "2018-06-21T16:57:47+00:00",
      "travel_to_time": 0
    },
    {
      "is_duplicate_origin": false,
      "is_repeat": false,
      "state": null,
      "city": null,
      "doctor_name": "",
      "address": "500 W Main St #110, Babylon, NY 11702, USA",
      "lat": 40.6882257,
      "lon": -73.3390919,
      "id": "66904132",
      "arrival_time": "2018-06-21T16:59:24+00:00",
      "end_time": "2018-06-21T17:19:24+00:00",
      "travel_to_time": 97
    },
    {
      "is_duplicate_origin": false,
      "is_repeat": false,
      "state": null,
      "city": null,
      "doctor_name": "Dascalu",
      "address": "500 W Main St #110, Babylon, NY 11702, USA",
      "lat": 40.6882257,
      "lon": -73.3390919,
      "id": "42083781",
      "arrival_time": "2018-06-21T17:19:24+00:00",
      "end_time": "2018-06-21T17:39:24+00:00",
      "travel_to_time": 0
    },
    {
      "is_duplicate_origin": false,
      "is_repeat": false,
      "state": null,
      "city": null,
      "doctor_name": "Vuong",
      "address": "500 W Main St #110, Babylon, NY 11702, USA",
      "lat": 40.6882257,
      "lon": -73.3390919,
      "id": "128681935",
      "arrival_time": "2018-06-21T17:39:24+00:00",
      "end_time": "2018-06-21T17:59:24+00:00",
      "travel_to_time": 0
    },
    {
      "is_duplicate_origin": false,
      "is_repeat": false,
      "state": null,
      "city": null,
      "doctor_name": "Barbara Somers",
      "address": "500 W Main St #116, Babylon, NY 11702, USA",
      "lat": 40.6882257,
      "lon": -73.3390919,
      "id": "19642239",
      "arrival_time": "2018-06-21T17:59:24+00:00",
      "end_time": "2018-06-21T18:19:24+00:00",
      "travel_to_time": 0
    },
    {
      "is_duplicate_origin": false,
      "is_repeat": false,
      "state": null,
      "city": null,
      "doctor_name": "Cipolla Thomas",
      "address": "350 W Montauk Hwy, Lindenhurst, NY 11757, USA",
      "lat": 40.6751237,
      "lon": -73.37229719999999,
      "id": "22556402",
      "arrival_time": "2018-06-21T18:24:47+00:00",
      "end_time": "2018-06-21T18:44:47+00:00",
      "travel_to_time": 323
    },
    {
      "is_duplicate_origin": false,
      "is_repeat": false,
      "state": null,
      "city": null,
      "doctor_name": "Waman Larry",
      "address": "5500 Merrick Rd, Massapequa, NY 11758, USA",
      "lat": 40.6687334,
      "lon": -73.434181,
      "id": "109058321",
      "arrival_time": "2018-06-21T18:53:45+00:00",
      "end_time": "2018-06-21T19:13:45+00:00",
      "travel_to_time": 538
    },
    {
      "is_duplicate_origin": false,
      "is_repeat": false,
      "state": null,
      "city": null,
      "doctor_name": "Donna Forker",
      "address": "5500 Merrick Rd, Massapequa, NY 11758, USA",
      "lat": 40.6687334,
      "lon": -73.434181,
      "id": "63015860",
      "arrival_time": "2018-06-21T19:13:45+00:00",
      "end_time": "2018-06-21T19:33:45+00:00",
      "travel_to_time": 0
    },
    {
      "is_duplicate_origin": false,
      "is_repeat": false,
      "state": null,
      "city": null,
      "doctor_name": "Fo, Corey",
      "address": "4160 Merrick Rd, Massapequa, NY 11758, USA",
      "lat": 40.6664368,
      "lon": -73.4792472,
      "id": "95291301",
      "num_total_visits": 2,
      "min_visit_gap_days": 1,
      "arrival_time": "2018-06-21T19:39:38+00:00",
      "end_time": "2018-06-21T19:59:38+00:00",
      "travel_to_time": 353
    },
    {
      "is_duplicate_origin": false,
      "is_repeat": false,
      "state": null,
      "city": null,
      "doctor_name": "Juan Goez",
      "address": "2428 Merrick Rd, Bellmore, NY 11710, USA",
      "lat": 40.66154,
      "lon": -73.5357161,
      "id": "43791895",
      "arrival_time": "2018-06-21T20:08:01+00:00",
      "end_time": "2018-06-21T20:28:01+00:00",
      "travel_to_time": 503
    },
    {
      "is_duplicate_origin": true,
      "is_repeat": false,
      "state": null,
      "city": null,
      "doctor_name": "Sam",
      "address": "900 Madison Street, Hewlett Neck, NY, USA",
      "lat": 40.6258472,
      "lon": -73.69714579999999,
      "id": "start",
      "visit_time_seconds": 0,
      "arrival_time": "2018-06-21T21:00:00+00:00",
      "end_time": "2018-06-21T21:00:00+00:00",
      "travel_to_time": 1818
    }
  ],
  "metrics": {
    "num_work_periods": 4,
    "first_solution_strategy": "ALL_UNPERFORMED",
    "search_meta_heuristic": "GUIDED_LOCAL_SEARCH",
    "doctors_visited": 57,
    "candidate_doctors": 68,
    "travel_time": 40866,
    "avg_travel_time": 716.9473684210526,
    "objective_costs": {
      "travel": 40866,
      "disjunctive": 1300000,
      "total": 1340866
    },
    "running_time": 60.07895486699999
  }
}